[
  {
    "id": "centre-hospitalier-d-angouleme-angouleme",
    "name": "Centre Hospitalier d’Angoulême",
    "city": "Angoulême",
    "adress": "Chemin du Grand Girac, 16959 Angoulême",
    "phone": "05 45 24 40 40",
    "department": 16,
    "lat": 45.6286166,
    "lng": 0.1174709,
    "type": "Centre d'imagerie"
  },
  {
    "id": "centre-hospitalier-de-ruffec-ruffec",
    "name": "Centre Hospitalier de Ruffec",
    "city": "Ruffec",
    "adress": "15 Rue de l'Hôpital, 16700 Ruffec",
    "phone": "05 45 29 50 23",
    "department": 16,
    "lat": 46.0288897,
    "lng": 0.1957705,
    "type": "Centre d'imagerie"
  },
  {
    "id": "centre-hospitalier-de-confolens-confolens",
    "name": "Centre Hospitalier de Confolens",
    "city": "Confolens",
    "adress": "3 Rue du Docteur Marcel Perrot, 16500 Confolens",
    "phone": "05 45 84 40 00",
    "department": 16,
    "lat": 48.862725,
    "lng": 2.287592,
    "type": "Centre d'imagerie"
  },
  {
    "id": "centre-hospitalier-sud-charente-barbezieux-saint-hilaire",
    "name": "Centre Hospitalier Sud Charente",
    "city": "Barbezieux-Saint-Hilaire",
    "adress": "Route de Saint-Bonnet, 16300 Barbezieux-Saint-Hilaire",
    "phone": "05 45 78 78 03",
    "department": 16,
    "lat": 45.4750837,
    "lng": -0.1361227,
    "type": "Centre d'imagerie"
  },
  {
    "id": "hopitaux-de-grand-cognac-chateaubernard",
    "name": "Hôpitaux de Grand Cognac",
    "city": "Châteaubernard",
    "adress": "65 Avenue d'Angoulême, 16100 Châteaubernard",
    "phone": "05 45 80 13 20",
    "department": 16,
    "lat": 45.6850726,
    "lng": -0.2975948,
    "type": "Centre d'imagerie"
  },
  {
    "id": "centre-d-imagerie-medicale-clinique-de-cognac-cognac",
    "name": "Centre d'Imagerie Médicale - Clinique de Cognac",
    "city": "Cognac",
    "adress": "71 Avenue d'Angoulême, 16100 Cognac",
    "phone": "05 45 82 08 80",
    "department": 16,
    "lat": 45.6846077,
    "lng": -0.296377,
    "type": "Centre d'imagerie"
  },
  {
    "id": "centre-clinical-soyaux-soyaux",
    "name": "Centre clinical Soyaux",
    "city": "Soyaux",
    "adress": "2 chemin de Frégeneuil, 16800 Soyaux",
    "phone": "05 45 97 95 40",
    "department": 16,
    "lat": 45.6356966,
    "lng": 0.1996579,
    "type": "Centre d'imagerie"
  },
  {
    "id": "centre-hospitalier-de-niort-niort",
    "name": "Centre Hospitalier de Niort",
    "city": "Niort",
    "adress": "40 Avenue Charles de Gaulle, 79000 Niort",
    "phone": "05 49 78 20 00",
    "department": 79,
    "lat": 46.316558,
    "lng": -0.4585109,
    "type": "Centre d'imagerie"
  },
  {
    "id": "polyclinique-d-inkermann-imonco-radioniort-niort",
    "name": "Polyclinique d’Inkermann + Imonco RadioNiort",
    "city": "Niort",
    "adress": "84 Route d'Aiffres, 79000 Niort",
    "phone": "05 49 32 32 32 / 05 79 68 01 01",
    "department": 79,
    "lat": 46.3053184,
    "lng": -0.439818,
    "type": "Centre d'imagerie"
  },
  {
    "id": "centre-hospitalier-nord-deux-sevres-faye-l-abbesse",
    "name": "Centre Hospitalier Nord Deux-Sèvres",
    "city": "Faye-l’Abbesse",
    "adress": "1 Rue du Dr René Laennec, 79350 Faye-l’Abbesse",
    "phone": "05 49 74 70 00",
    "department": 79,
    "lat": 46.8305,
    "lng": -0.3532,
    "type": "Centre d'imagerie"
  },
  {
    "id": "radioniort-parthenay-parthenay",
    "name": "RadioNiort Parthenay",
    "city": "Parthenay",
    "adress": "13 Route de Brossard 79200 Parthenay",
    "phone": "05 49 32 32 32",
    "department": 79,
    "lat": 46.6544511,
    "lng": -0.2174798,
    "type": "Centre d'imagerie"
  },
  {
    "id": "chu-de-poitiers-poitiers",
    "name": "CHU de Poitiers",
    "city": "Poitiers",
    "adress": "2 Rue de la Milétrie, 86021 Poitiers",
    "phone": "05 49 44 44 44",
    "department": 86,
    "lat": 46.5601197,
    "lng": 0.3845299,
    "type": "Centre d'imagerie"
  },
  {
    "id": "pictavix-poitiers-republique-poitiers",
    "name": "PICTAVIX Poitiers - République",
    "city": "Poitiers",
    "adress": "4 rue Eugène Chevreul, 86000 Poitiers",
    "phone": "05 33 00 00 33",
    "department": 86,
    "lat": 46.6085168,
    "lng": 0.3409396,
    "type": "Centre d'imagerie"
  },
  {
    "id": "pictavix-poitiers-polyclinique-poitiers",
    "name": "PICTAVIX Poitiers - Polyclinique",
    "city": "Poitiers",
    "adress": "1 rue de la Providence, 86000 Poitiers",
    "phone": "05 33 00 00 33",
    "department": 86,
    "lat": 46.5643973,
    "lng": 0.3669262,
    "type": "Centre d'imagerie"
  },
  {
    "id": "centre-de-chatellerault-rive-gauche-chatellerault",
    "name": "Centre de Châtellerault Rive Gauche",
    "city": "Châtellerault",
    "adress": "15 Rue de Verdun, 86100 Châtellerault",
    "phone": "05 49 93 51 38",
    "department": 86,
    "lat": 46.8193141,
    "lng": 0.5389767,
    "type": "Centre d'imagerie"
  },
  {
    "id": "centre-hospitalier-de-chatellerault-chatellerault",
    "name": "Centre hospitalier de Châtellerault",
    "city": "Châtellerault",
    "adress": "1 Rue du Docteur Luc Montagnier, 86106 Châtellerault",
    "phone": "05 49 02 90 90",
    "department": 86,
    "lat": 46.8332222,
    "lng": 0.5566204,
    "type": "Centre d'imagerie"
  },
  {
    "id": "centre-hospitalier-de-loudun-loudun",
    "name": "Centre Hospitalier de Loudun",
    "city": "Loudun",
    "adress": "1 Rue du Docteur Basset, 86200 Loudun",
    "phone": "05 49 98 41 41",
    "department": 86,
    "lat": 46.9653,
    "lng": 0.2697,
    "type": "Centre d'imagerie"
  },
  {
    "id": "centre-hospitalier-montmorillon-montmorillon",
    "name": "Centre Hospitalier Montmorillon",
    "city": "Montmorillon",
    "adress": "2 rue Henri Dunant, 86500 Montmorillon",
    "phone": "05 49 83 83 53",
    "department": 86,
    "lat": 46.428719,
    "lng": 0.8659605,
    "type": "Centre d'imagerie"
  },
  {
    "id": "centre-hospitalier-de-la-rochelle-la-rochelle",
    "name": "Centre Hospitalier de La Rochelle",
    "city": "La Rochelle",
    "adress": "1 Rue du Dr Schweitzer, 17019 La Rochelle",
    "phone": "05 46 45 50 00",
    "department": 17,
    "lat": 46.16667,
    "lng": -1.15,
    "type": "Centre d'imagerie"
  },
  {
    "id": "scanner-rochelais-dumont-la-rochelle",
    "name": "Scanner Rochelais Dumont",
    "city": "La Rochelle",
    "adress": "26 rue du Général Dumont, 17000 La Rochelle",
    "phone": "05 46 67 88 88",
    "department": 17,
    "lat": 46.1601686,
    "lng": -1.174477,
    "type": "Centre d'imagerie"
  },
  {
    "id": "centre-hospitalier-de-rochefort-rochefort",
    "name": "Centre Hospitalier de Rochefort",
    "city": "Rochefort",
    "adress": "1 avenue Beligon, 17300 Rochefort",
    "phone": "05 46 67 88 88",
    "department": 17,
    "lat": 45.9673381,
    "lng": -0.9624356,
    "type": "Centre d'imagerie"
  },
  {
    "id": "centre-hospitalier-de-saintes-saintes",
    "name": "Centre Hospitalier de Saintes",
    "city": "Saintes",
    "adress": "11 Boulevard Ambroise Paré, 17100 Saintes",
    "phone": "05 46 95 15 15",
    "department": 17,
    "lat": 45.7478424,
    "lng": -0.6586318,
    "type": "Centre d'imagerie"
  },
  {
    "id": "radiologie-imagerie-saintaise-clinique-richelieu-saintes",
    "name": "Radiologie Imagerie Saintaise (Clinique Richelieu)",
    "city": "Saintes",
    "adress": "22 Ter Rue Montlouis 17100 Saintes",
    "phone": "05 46 74 11 22",
    "department": 17,
    "lat": 45.7490645,
    "lng": -0.6429225,
    "type": "Centre d'imagerie"
  },
  {
    "id": "irsa-scanner-clinique-atlantique-puilboreau",
    "name": "IRSA (Scanner Clinique Atlantique)",
    "city": "Puilboreau",
    "adress": "26 rue moulin des Justices, 17138 Puilboreau",
    "phone": "05 46 67 88 88",
    "department": 17,
    "lat": 46.1735981,
    "lng": -1.1263146,
    "type": "Centre d'imagerie"
  },
  {
    "id": "centre-hospitalier-de-jonzac-jonzac",
    "name": "Centre Hospitalier de Jonzac",
    "city": "Jonzac",
    "adress": "4 Rue Winston Churchill, 17500 Jonzac",
    "phone": "05 46 48 75 17",
    "department": 17,
    "lat": 45.4355657,
    "lng": -0.4330409,
    "type": "Centre d'imagerie"
  },
  {
    "id": "centre-hospitalier-de-royan-royan",
    "name": "Centre Hospitalier de Royan",
    "city": "Royan",
    "adress": " 6 Rue Démange, 17640 Vaux-sur-Mer",
    "phone": "05 46 39 52 52",
    "department": 17,
    "lat": 45.6351251,
    "lng": -1.0606794,
    "type": "Centre d'imagerie"
  },
  {
    "id": "clinique-pasteur-royan",
    "name": "Clinique Pasteur",
    "city": "Royan",
    "adress": "222 Av. de Rochefort, 17200 Royan",
    "phone": "05 46 22 22 22",
    "department": 17,
    "lat": 45.6525891,
    "lng": -1.0235107,
    "type": "Centre d'imagerie"
  },
  {
    "id": "centre-hospitalier-de-chateauroux-chateauroux",
    "name": "Centre Hospitalier de Châteauroux",
    "city": "Châteauroux",
    "adress": "216 Avenue de Verdun, 36000 Châteauroux",
    "phone": "02 54 29 60 12",
    "department": 36,
    "lat": 46.798842,
    "lng": 1.697909,
    "type": "Centre d'imagerie"
  },
  {
    "id": "centre-hospitalier-de-chateauroux-le-blanc-le-blanc",
    "name": "Centre Hospitalier de Châteauroux - Le Blanc",
    "city": "Le Blanc",
    "adress": "5 rue Pierre Milon, 36300 Le Blanc",
    "phone": "02 54 28 28 28",
    "department": 36,
    "lat": 46.6331368,
    "lng": 1.0586058,
    "type": "Centre d'imagerie"
  },
  {
    "id": "scanner-de-l-indre-chateauroux",
    "name": "Scanner de L’Indre",
    "city": "Châteauroux",
    "adress": "6 rue Paul Accolas, 36000 Châteauroux",
    "phone": "02 54 34 21 21",
    "department": 36,
    "lat": 46.815833,
    "lng": 1.69837,
    "type": "Centre d'imagerie"
  },
  {
    "id": "centre-hospitalier-d-issoudun-issoudun",
    "name": "Centre Hospitalier d’Issoudun",
    "city": "Issoudun",
    "adress": "Avenue Jean Bonnefont, 36100 Issoudun",
    "phone": "02 54 03 63 99",
    "department": 36,
    "lat": 46.956962,
    "lng": 1.9958029,
    "type": "Centre d'imagerie"
  },
  {
    "id": "chru-de-tours-bretonneau-tours",
    "name": "CHRU de Tours - Bretonneau",
    "city": "Tours",
    "adress": "2 Boulevard Tonnellé, 37044 Tours",
    "phone": "02 47 47 37 25",
    "department": 37,
    "lat": 47.3876879,
    "lng": 0.6699206,
    "type": "Centre d'imagerie"
  },
  {
    "id": "clinique-jeanne-d-arc-saint-benoit-la-foret",
    "name": "Clinique Jeanne d’Arc",
    "city": "Saint-Benoît-La-Forêt",
    "adress": "Route de Tours, bois de Gâtine, 37500 Saint-Benoît-la-Forêt",
    "phone": "02 47 93 70 46",
    "department": 37,
    "lat": 47.1910392,
    "lng": 0.2956759,
    "type": "Centre d'imagerie"
  },
  {
    "id": "clinique-nct-saint-cyr-sur-loire",
    "name": "Clinique NCT+",
    "city": "Saint-Cyr-sur-Loire",
    "adress": "2 Boulevard Alfred Nobel, 37540 Saint-Cyr-sur-Loire",
    "phone": "02 47 70 60 50",
    "department": 37,
    "lat": 47.4317509,
    "lng": 0.6625162,
    "type": "Centre d'imagerie"
  },
  {
    "id": "scanner-de-la-nef-tours",
    "name": "Scanner de la NEF",
    "city": "Tours",
    "adress": "60 rue Blaise Pascal, 37000 Tours",
    "phone": "02 47 70 60 50",
    "department": 37,
    "lat": 47.3868122,
    "lng": 0.6945511,
    "type": "Centre d'imagerie"
  },
  {
    "id": "hopital-trousseau-chambray-les-tours",
    "name": "Hôpital Trousseau",
    "city": "Chambray-lès-Tours",
    "adress": "Av. de la République, 37170 Chambray-lès-Tours",
    "phone": "02 47 47 46 51",
    "department": 37,
    "lat": 47.3436293,
    "lng": 0.7157418,
    "type": "Centre d'imagerie"
  },
  {
    "id": "pole-sante-leonard-de-vinci-chambray-les-tours",
    "name": "Pôle Santé Léonard de Vinci ",
    "city": "Chambray-lès-Tours",
    "adress": "7 Avenue Alexandre Minkowski, 37170 Chambray-lès-Tours ",
    "phone": "02 47 70 60 50",
    "department": 37,
    "lat": 47.334313,
    "lng": 0.689854,
    "type": "Centre d'imagerie"
  },
  {
    "id": "chu-d-angers-angers",
    "name": "CHU d’Angers",
    "city": "Angers",
    "adress": "4 Rue Larrey, 49933 Angers",
    "phone": "02 41 35 36 37",
    "department": 49,
    "lat": 47.4814041,
    "lng": -0.5541761,
    "type": "Centre d'imagerie"
  },
  {
    "id": "centre-hospitalier-de-saumur-saumur",
    "name": "Centre Hospitalier de Saumur",
    "city": "Saumur",
    "adress": "100 Route de Fontevraud, 49400 Saumur",
    "phone": "02 41 53 31 04",
    "department": 49,
    "lat": 47.2470033,
    "lng": -0.0592197,
    "type": "Centre d'imagerie"
  },
  {
    "id": "centre-hospitalier-de-cholet-cholet",
    "name": "Centre Hospitalier de Cholet",
    "city": "Cholet",
    "adress": "1 Rue de Marengo, 49300 Cholet",
    "phone": "02 41 49 64 75",
    "department": 49,
    "lat": 47.0419622,
    "lng": -0.8967229,
    "type": "Centre d'imagerie"
  },
  {
    "id": "polyclinique-du-parc-cholet",
    "name": "Polyclinique du Parc",
    "city": "Cholet",
    "adress": "2 Avenue des Sables, 49300 Cholet",
    "phone": "02 41 63 42 00",
    "department": 49,
    "lat": 47.0378723,
    "lng": -0.9005839,
    "type": "Centre d'imagerie"
  },
  {
    "id": "clinique-de-l-anjou-angers",
    "name": "Clinique de l'Anjou",
    "city": "Angers",
    "adress": "148 Square de Lattre de Tassigny, 49000 Angers",
    "phone": "02 41 18 28 00",
    "department": 49,
    "lat": 47.4451484,
    "lng": -0.5386018,
    "type": "Centre d'imagerie"
  },
  {
    "id": "clinique-saint-leonard-trelaze",
    "name": "Clinique Saint-Léonard",
    "city": "Trélazé",
    "adress": "18 Rue de Bellinière, 49800 Trélazé",
    "phone": "02 41 18 28 00",
    "department": 49,
    "lat": 47.4559313,
    "lng": -0.5143016,
    "type": "Centre d'imagerie"
  },
  {
    "id": "centre-hospitalier-departemental-la-roche-sur-yon",
    "name": "Centre Hospitalier Départemental",
    "city": "La Roche-sur-Yon",
    "adress": "140 Boulevard Aristide Briand, 85000 La Roche-sur-Yon",
    "phone": "02 51 44 61 00",
    "department": 85,
    "lat": 46.6677738,
    "lng": -1.4308383,
    "type": "Centre d'imagerie"
  },
  {
    "id": "chd-vendee-montaigu",
    "name": "CHD Vendée",
    "city": "Montaigu",
    "adress": "54 Rue Saint-Jacques, 85600 Montaigu-Vendée",
    "phone": "02 51 44 62 11",
    "department": 85,
    "lat": 46.9720947,
    "lng": -1.3118889,
    "type": "Centre d'imagerie"
  },
  {
    "id": "chd-vendee-lucon",
    "name": "CHD Vendée",
    "city": "Luçon",
    "adress": "41 Rue Henry Renaud, 85400 Luçon",
    "phone": "02 51 28 33 96",
    "department": 85,
    "lat": 46.45302,
    "lng": -1.1702528,
    "type": "Centre d'imagerie"
  },
  {
    "id": "clinique-saint-charles-la-roche-sur-yon",
    "name": "Clinique Saint-Charles",
    "city": "La Roche-sur-Yon",
    "adress": "11 boulevard René Lévesque, 85000 La Roche-sur-Yon",
    "phone": "02 51 44 45 35",
    "department": 85,
    "lat": 46.6587192,
    "lng": -1.4129995,
    "type": "Centre d'imagerie"
  },
  {
    "id": "cabinet-d-imagerie-medicale-scanner-sud-vendee-nan",
    "name": "Cabinet d’imagerie médicale – Scanner Sud Vendée",
    "city": "",
    "adress": "11 rue du Docteur René Laforge, 85200 Fontenay Le Comte",
    "phone": "02 51 69 77 00",
    "department": 85,
    "lat": 46.465706,
    "lng": -0.8280034,
    "type": "Centre d'imagerie"
  },
  {
    "id": "centre-hospitalier-loire-vendee-ocean-challons",
    "name": "Centre Hospitalier Loire Vendée Océan",
    "city": "Challons",
    "adress": "20 Boulevard Guérin, 85300 Challans",
    "phone": "02 51 49 50 00",
    "department": 85,
    "lat": 46.84733200073242,
    "lng": -1.8716517686843872,
    "type": "Centre d'imagerie"
  },
  {
    "id": "chu-de-limoges-limoges",
    "name": "CHU de Limoges",
    "city": "Limoges",
    "adress": "2 Avenue Martin Luther King, 87000 Limoges",
    "phone": "05 55 05 55 55",
    "department": 87,
    "lat": 45.8134921,
    "lng": 1.2385207,
    "type": "Centre d'imagerie"
  },
  {
    "id": "clinique-des-emailleurs-limoges",
    "name": "Clinique des Emailleurs",
    "city": "Limoges",
    "adress": "1 rue Victor Scholcher, 87000 Limoges",
    "phone": "05 55 30 81 00",
    "department": 87,
    "lat": 45.8315,
    "lng": 1.2578,
    "type": "Centre d'imagerie"
  },
  {
    "id": "polyclinique-site-francois-chenieux-imro-limoges",
    "name": "Polyclinique Site François Chénieux (IMRO)",
    "city": "Limoges",
    "adress": "18, Rue du Général Catroux, 87089 Limoges",
    "phone": "05 55 30 81 00",
    "department": 87,
    "lat": 45.8130043,
    "lng": 1.28492,
    "type": "Centre d'imagerie"
  },
  {
    "id": "scanner-prive-du-limousin-limoges",
    "name": "Scanner Privé du Limousin",
    "city": "Limoges",
    "adress": "1 place Henri Queuille, 87000 Limoges",
    "phone": "05 55 30 81 00",
    "department": 87,
    "lat": 45.8149511,
    "lng": 1.2694729,
    "type": "Centre d'imagerie"
  },
  {
    "id": "ch-de-saint-junien-saint-junien",
    "name": "CH de Saint-Junien",
    "city": "Saint-Junien",
    "adress": "12 rue Chateaubriand, 87200 Saint Junien",
    "phone": "05 55 30 81 00",
    "department": 87,
    "lat": 45.8883575,
    "lng": 0.8976792,
    "type": "Centre d'imagerie"
  },
  {
    "id": "centre-hospitalier-de-perigueux-perigueux",
    "name": "Centre Hospitalier de Périgueux",
    "city": "Périgueux",
    "adress": "80 Avenue Georges Pompidou, 24000 Périgueux",
    "phone": "05 53 45 25 25",
    "department": 24,
    "lat": 45.1879733,
    "lng": 0.7222227,
    "type": "Centre d'imagerie"
  },
  {
    "id": "cabinet-d-imagerie-hopital-prive-francheville-perigueux",
    "name": "Cabinet d'imagerie hôpital privé Francheville",
    "city": "Périgueux",
    "adress": "36 Boulevard de Vésone, 24000 Périgueux",
    "phone": "05 53 06 41 41",
    "department": 24,
    "lat": 45.1801329,
    "lng": 0.7166985,
    "type": "Centre d'imagerie"
  },
  {
    "id": "centre-hospitalier-sarlat-sarlat",
    "name": "Centre Hospitalier Sarlat",
    "city": "Sarlat",
    "adress": "Avenue Jean Leclaire, 24200 Sarlat",
    "phone": "05 53 31 76 39",
    "department": 24,
    "lat": 44.9333,
    "lng": 1.2333,
    "type": "Centre d'imagerie"
  },
  {
    "id": "clinique-pasteur-rue-malbec-24100-bergerac-bergerac",
    "name": "Clinique Pasteur - rue Malbec 24100 BERGERAC",
    "city": "Bergerac",
    "adress": "54 Rue du Professeur Pozzi, 24100 Bergerac",
    "phone": "05 53 23 51 20",
    "department": 24,
    "lat": 44.8514608,
    "lng": 0.4854763,
    "type": "Centre d'imagerie"
  },
  {
    "id": "chu-de-bordeaux-pellegrin-bordeaux",
    "name": "CHU de Bordeaux - Pellegrin",
    "city": "Bordeaux",
    "adress": "Place Amélie Raba Léon, 33000 Bordeaux",
    "phone": "05 56 79 56 79",
    "department": 33,
    "lat": 44.830324,
    "lng": -0.6032733,
    "type": "Centre d'imagerie"
  },
  {
    "id": "chu-de-bordeaux-saint-andre-bordeaux",
    "name": "CHU de Bordeaux - Saint André",
    "city": "Bordeaux",
    "adress": "1 Rue Jean Burguet, 33000 Bordeaux",
    "phone": "05 57 82 26 64",
    "department": 33,
    "lat": 44.8335725,
    "lng": -0.578226,
    "type": "Centre d'imagerie"
  },
  {
    "id": "chu-de-bordeaux-haut-leveque-bordeaux",
    "name": "CHU de Bordeaux - Haut Lévêque",
    "city": "Bordeaux",
    "adress": "Avenue de Magellan, 33604 Pessac",
    "phone": "05 57 65 64 69",
    "department": 33,
    "lat": 44.790663,
    "lng": -0.657677,
    "type": "Centre d'imagerie"
  },
  {
    "id": "polyclinique-bordeaux-nord-bordeaux",
    "name": "Polyclinique Bordeaux Nord",
    "city": "Bordeaux",
    "adress": "15 Rue Claude Boucher, 33000 Bordeaux",
    "phone": "05 56 43 78 90",
    "department": 33,
    "lat": 44.8638336,
    "lng": -0.5794914,
    "type": "Centre d'imagerie"
  },
  {
    "id": "clinique-mutualiste-du-medoc-lesparre-medoc",
    "name": "Clinique Mutualiste du Médoc",
    "city": "Lesparre-Médoc",
    "adress": "60 Rue Aristide Briand, 33340 Lesparre-Médoc",
    "phone": "05 56 41 29 29",
    "department": 33,
    "lat": 45.3043134,
    "lng": -0.9378567,
    "type": "Centre d'imagerie"
  },
  {
    "id": "pome-de-sante-d-arcachon-arcachon",
    "name": "Pôme de santé d’Arcachon",
    "city": "Arcachon",
    "adress": "Avenue Jean Hameau, 33164 La Teste-De-Buch",
    "phone": "05 57 52 93 90",
    "department": 33,
    "lat": 44.6143958,
    "lng": -1.1110693,
    "type": "Centre d'imagerie"
  },
  {
    "id": "scanner-des-4-pavillons-lormont",
    "name": "Scanner des 4 pavillons",
    "city": "Lormont",
    "adress": "24 Rue des Cavailles, 33310 Lormont",
    "phone": "05 57 02 24 24",
    "department": 33,
    "lat": 44.8646057,
    "lng": -0.5218967,
    "type": "Centre d'imagerie"
  },
  {
    "id": "clinique-saint-augustin-bordeaux",
    "name": "Clinique Saint Augustin",
    "city": "Bordeaux",
    "adress": "114 avenue d’Arès, 33200 Bordeaux",
    "phone": "05 56 00 30 30",
    "department": 33,
    "lat": 44.8364748,
    "lng": -0.6054257,
    "type": "Centre d'imagerie"
  },
  {
    "id": "hopital-prive-saint-martin-pessac",
    "name": "Hôpital privé Saint Martin",
    "city": "Pessac",
    "adress": "6 allée des Tulipes, PESSAC",
    "phone": " 05 56 45 95 50",
    "department": 33,
    "lat": 44.790274,
    "lng": -0.6295638,
    "type": "Centre d'imagerie"
  },
  {
    "id": "clinique-tivoli-ducos-bordeaux",
    "name": "Clinique Tivoli Ducos",
    "city": "Bordeaux",
    "adress": "91 rue Rivière, Bordeaux",
    "phone": "05 56 29 23 23",
    "department": 33,
    "lat": 44.8573745,
    "lng": -0.5878884,
    "type": "Centre d'imagerie"
  },
  {
    "id": "clinique-jean-villar-bruges",
    "name": "Clinique Jean Villar",
    "city": "Bruges",
    "adress": "56 Avenue Maryse Bastié, 33520 Bruges",
    "phone": "05 56 28 37 71",
    "department": 33,
    "lat": 44.8881528,
    "lng": -0.6157362,
    "type": "Centre d'imagerie"
  },
  {
    "id": "nouvelle-clinique-tondu-floirac",
    "name": "Nouvelle Clinique Tondu",
    "city": "Floirac",
    "adress": "46 avenue Jean Alfonsea, Floirac",
    "phone": "05 56 48 96 20",
    "department": 33,
    "lat": 44.8256258,
    "lng": -0.5299457,
    "type": "Centre d'imagerie"
  },
  {
    "id": "scanner-du-libournais-libourne",
    "name": "Scanner du Libournais",
    "city": "Libourne",
    "adress": "Rue du Docteur Nard, 33500 Libourne",
    "phone": "05 57 25 45 60",
    "department": 33,
    "lat": 44.9242591,
    "lng": -0.2315134,
    "type": "Centre d'imagerie"
  },
  {
    "id": "centre-hospitalier-sud-gironde-langon",
    "name": "Centre Hospitalier Sud Gironde",
    "city": "Langon",
    "adress": "Rue Paul Langevin, 33219 Langon",
    "phone": "05 56 76 57 57",
    "department": 33,
    "lat": 44.5440202,
    "lng": -0.2435118,
    "type": "Centre d'imagerie"
  }
]